{"data":[{"DateDonation":"2020-07-07T00:00:00","FromHour":"09:00","ToHour":"15:00","Name":"","City":"חיפה","Street":"יצחק שדה","NumHouse":"10","AccountType":" - תחנת מד\"א","lon":34.989571,"lat":32.7940463},{"DateDonation":"2020-07-07T00:00:00","FromHour":"08:00","ToHour":"19:00","Name":"","City":"רמת גן","Street":"בית חולים תה\"ש","NumHouse":"","AccountType":" - שרותי הדם מד\"א","lon":34.824785,"lat":32.068424},{"DateDonation":"2020-07-07T00:00:00","FromHour":"10:00","ToHour":"16:00","Name":"התרמה בקרואן בשער רגר.","City":"באר שבע","Street":"","NumHouse":"","AccountType":"","lon":34.7980273,"lat":31.2593067},{"DateDonation":"2020-07-07T00:00:00","FromHour":"15:00","ToHour":"20:00","Name":"תחנת דלק פז","City":"מגאר","Street":"","NumHouse":"","AccountType":"","lon":35.4284567,"lat":32.879853},{"DateDonation":"2020-07-07T00:00:00","FromHour":"16:00","ToHour":"22:00","Name":"תחנת מד\"א ","City":"כפר חב''ד","Street":"","NumHouse":"","AccountType":"","lon":34.849103,"lat":31.990144},{"DateDonation":"2020-07-07T00:00:00","FromHour":"16:00","ToHour":"22:00","Name":"תחנת מד\"א ","City":"כפר חב''ד","Street":"","NumHouse":"","AccountType":"","lon":34.849103,"lat":31.990144},{"DateDonation":"2020-07-07T00:00:00","FromHour":"11:00","ToHour":"20:00","Name":"מתחם מול 7 שדרות","City":"שדרות","Street":"דרך מנחם בגין","NumHouse":"","AccountType":"","lon":34.5893062,"lat":31.5163161},{"DateDonation":"2020-07-07T00:00:00","FromHour":"17:00","ToHour":"21:30","Name":"נתיב העשרה                                       ","City":"נתיב העשרה","Street":"","NumHouse":"","AccountType":"","lon":34.534312,"lat":31.569366},{"DateDonation":"2020-07-07T00:00:00","FromHour":"10:00","ToHour":"15:00","Name":"משביר י-ם","City":"ירושלים","Street":"המלך ג'ורג'","NumHouse":"20","AccountType":"","lon":35.2198589,"lat":31.7818019},{"DateDonation":"2020-07-07T00:00:00","FromHour":"09:00","ToHour":"20:00","Name":"  המ'ג 7 רוממה                                       ","City":"ירושלים","Street":"המ\"ג","NumHouse":"7","AccountType":" - תחנת מד\"א","lon":35.1996482,"lat":31.7916038},{"DateDonation":"2020-07-07T00:00:00","FromHour":"16:00","ToHour":"21:00","Name":"מגרש בית ספר חב\"ד בנות","City":"עמנואל","Street":"","NumHouse":"","AccountType":"","lon":0,"lat":0},{"DateDonation":"2020-07-07T00:00:00","FromHour":"16:00","ToHour":"20:00","Name":"מועדון                                   ","City":"אבני איתן","Street":"","NumHouse":"","AccountType":"","lon":35.765777,"lat":32.824808},{"DateDonation":"2020-07-07T00:00:00","FromHour":"15:00","ToHour":"21:00","Name":"ליד החנות ביר בוריין","City":"באקה אל ע'רביה","Street":"","NumHouse":"","AccountType":"","lon":35.0364133,"lat":32.4194256},{"DateDonation":"2020-07-07T00:00:00","FromHour":"16:00","ToHour":"22:00","Name":"  בתחנה                                              ","City":"חולון","Street":"הרוקמים","NumHouse":"1","AccountType":" - תחנת מד\"א","lon":34.787384,"lat":32.015833},{"DateDonation":"2020-07-07T00:00:00","FromHour":"16:00","ToHour":"21:30","Name":"  מד\"א עכו                                           ","City":"עכו","Street":"יוסף גדיש ","NumHouse":"1","AccountType":"","lon":35.0859722,"lat":32.9236967},{"DateDonation":"2020-07-07T00:00:00","FromHour":"09:00","ToHour":"15:00","Name":"ליד תחנת כיבוי אש","City":"עכו","Street":"רמז דוד ","NumHouse":"1","AccountType":"","lon":34.8192011,"lat":31.248722},{"DateDonation":"2020-07-07T00:00:00","FromHour":"16:00","ToHour":"22:00","Name":"מד\"א רחובות","City":"רחובות","Street":"דוד רמז","NumHouse":"69","AccountType":" - תחנת מד\"א","lon":34.8045349,"lat":31.8948356},{"DateDonation":"2020-07-07T00:00:00","FromHour":"10:30","ToHour":"18:00","Name":"  תחנה מרכזית                                  ","City":"באר שבע","Street":"יצחק בן צבי","NumHouse":"","AccountType":"","lon":34.796741,"lat":31.243017},{"DateDonation":"2020-07-08T00:00:00","FromHour":"14:30","ToHour":"21:00","Name":"הישפרו-פאוור סנ��ר נס ציונה","City":"נס ציונה","Street":"הפטיש","NumHouse":"6","AccountType":"","lon":34.7926425,"lat":31.9208791},{"DateDonation":"2020-07-08T00:00:00","FromHour":"15:00","ToHour":"21:30","Name":"כיכר המייסדים","City":"פתח תקווה","Street":"חיים עוזר","NumHouse":"","AccountType":"","lon":34.885592,"lat":32.089673},{"DateDonation":"2020-07-08T00:00:00","FromHour":"09:00","ToHour":"15:00","Name":"בי\"ח רמב\"ם - קניון סגול","City":"חיפה","Street":"העליה השניה","NumHouse":"8","AccountType":"","lon":34.9857062,"lat":32.8329785},{"DateDonation":"2020-07-08T00:00:00","FromHour":"09:30","ToHour":"15:00","Name":"בי\"ח נהריה מול קפיטרית יעל","City":"נהריה","Street":"כביש מעונה","NumHouse":"","AccountType":"","lon":35.1073443,"lat":33.024982},{"DateDonation":"2020-07-08T00:00:00","FromHour":"11:00","ToHour":"18:00","Name":"  ליד קניון נחמיה                                    ","City":"קרית שמונה","Street":"","NumHouse":"","AccountType":"","lon":35.575433,"lat":33.221369},{"DateDonation":"2020-07-08T00:00:00","FromHour":"10:00","ToHour":"16:30","Name":"משביר י-ם","City":"ירושלים","Street":"המלך ג'ורג'","NumHouse":"20","AccountType":"","lon":35.2198589,"lat":31.7818019},{"DateDonation":"2020-07-08T00:00:00","FromHour":"09:00","ToHour":"19:00","Name":"  המ'ג 7 רוממה                                       ","City":"ירושלים","Street":"המ\"ג","NumHouse":"7","AccountType":" - תחנת מד\"א","lon":35.1996482,"lat":31.7916038},{"DateDonation":"2020-07-08T00:00:00","FromHour":"16:00","ToHour":"22:30","Name":"  אולם בית תרבות                                     ","City":"שוהם","Street":"","NumHouse":"","AccountType":"","lon":34.9463019,"lat":32.0001555},{"DateDonation":"2020-07-08T00:00:00","FromHour":"16:00","ToHour":"22:00","Name":"המתנ\"ס החדש ","City":"צורן","Street":"דרך לב השרון פינת השקמה ","NumHouse":"","AccountType":"","lon":34.919297,"lat":32.277644},{"DateDonation":"2020-07-08T00:00:00","FromHour":"08:00","ToHour":"19:00","Name":"","City":"רמת גן","Street":"בית חולים תה\"ש","NumHouse":"","AccountType":" - שרותי הדם מד\"א","lon":34.824785,"lat":32.068424},{"DateDonation":"2020-07-08T00:00:00","FromHour":"12:00","ToHour":"19:00","Name":"","City":"באר שבע","Street":"0834","NumHouse":"","AccountType":"","lon":34.791462,"lat":31.252973},{"DateDonation":"2020-07-08T00:00:00","FromHour":"16:00","ToHour":"20:00","Name":"מועדון                      ","City":"כפר רופין","Street":"","NumHouse":"","AccountType":"","lon":35.555673,"lat":32.457549},{"DateDonation":"2020-07-08T00:00:00","FromHour":"08:30","ToHour":"14:30","Name":"קניון עלי מול                    ","City":"דאלית אל כרמל","Street":"","NumHouse":"","AccountType":"","lon":35.0573019,"lat":32.6990965},{"DateDonation":"2020-07-08T00:00:00","FromHour":"15:00","ToHour":"21:00","Name":"קניון עלי מול                    ","City":"דאלית אל כרמל","Street":"","NumHouse":"","AccountType":"","lon":35.0573019,"lat":32.6990965},{"DateDonation":"2020-07-08T00:00:00","FromHour":"15:00","ToHour":"21:00","Name":"ליד בנק מרכנתיל","City":"עיילבון","Street":"","NumHouse":"","AccountType":"","lon":35.401298,"lat":32.838128},{"DateDonation":"2020-07-08T00:00:00","FromHour":"09:00","ToHour":"16:00","Name":"  מרכז הכפר                                          ","City":"עראבה","Street":"","NumHouse":"","AccountType":"","lon":35.337167,"lat":32.853705},{"DateDonation":"2020-07-09T00:00:00","FromHour":"16:00","ToHour":"20:00","Name":"  מרפאה                                              ","City":"דגניה א'","Street":"","NumHouse":"","AccountType":"","lon":35.575062,"lat":32.706938},{"DateDonation":"2020-07-09T00:00:00","FromHour":"10:00","ToHour":"19:00","Name":"התרמה בקרואן בשער רגר.","City":"באר שבע","Street":"","NumHouse":"","AccountType":"","lon":34.7980273,"lat":31.2593067},{"DateDonation":"2020-07-09T00:00:00","FromHour":"08:00","ToHour":"19:00","Name":"","City":"רמת גן","Street":"בית חולים תה\"ש","NumHouse":"","AccountType":" - שרותי הדם מד\"א","lon":34.824785,"lat":32.068424},{"DateDonation":"2020-07-09T00:00:00","FromHour":"15:00","ToHour":"20:00","Name":"מתנ\"ס                                           ","City":"שבלי","Street":"","NumHouse":"","AccountType":"","lon":35.397544,"lat":32.693122},{"DateDonation":"2020-07-09T00:00:00","FromHour":"17:00","ToHour":"21:00","Name":"פונדק","City":"צרעה","Street":"","NumHouse":"","AccountType":"","lon":0,"lat":0},{"DateDonation":"2020-07-09T00:00:00","FromHour":"10:00","ToHour":"16:30","Name":"משביר י-ם","City":"ירושלים","Street":"המלך ג'ורג'","NumHouse":"20","AccountType":"","lon":35.2198589,"lat":31.7818019},{"DateDonation":"2020-07-09T00:00:00","FromHour":"09:00","ToHour":"19:00","Name":"  המ'ג 7 רוממה                                       ","City":"ירושלים","Street":"המ\"ג","NumHouse":"7","AccountType":" - תחנת מד\"א","lon":35.1996482,"lat":31.7916038},{"DateDonation":"2020-07-09T00:00:00","FromHour":"09:30","ToHour":"16:00","Name":"מגן דוד אדום כסיפה","City":"כסיפה","Street":"","NumHouse":"","AccountType":"","lon":34.7920168,"lat":31.2486618},{"DateDonation":"2020-07-09T00:00:00","FromHour":"09:30","ToHour":"15:00","Name":"גב-יםבניין-2","City":"באר שבע","Street":"","NumHouse":"","AccountType":"","lon":34.8122215,"lat":31.264156},{"DateDonation":"2020-07-09T00:00:00","FromHour":"09:30","ToHour":"16:00","Name":"  רחבה מול בנין ישפאר על המדרכה האדומה               ","City":"הרצליה","Street":"ספיר","NumHouse":"7","AccountType":"","lon":34.8122222,"lat":32.1638889},{"DateDonation":"2020-07-09T00:00:00","FromHour":"15:30","ToHour":"21:30","Name":"כיכר העיר","City":"כפר סבא","Street":"ויצמן","NumHouse":"63","AccountType":"","lon":34.9123142,"lat":32.1746641},{"DateDonation":"2020-07-09T00:00:00","FromHour":"10:00","ToHour":"17:00","Name":"  תחנה מרכזית                                  ","City":"באר שבע","Street":"יצחק בן צבי","NumHouse":"","AccountType":"","lon":34.796741,"lat":31.243017},{"DateDonation":"2020-07-09T00:00:00","FromHour":"15:30","ToHour":"21:30","Name":"קניון הזהב                             ","City":"ראשון לציון","Street":"סחרוב","NumHouse":"","AccountType":"","lon":34.774242,"lat":31.9913925},{"DateDonation":"2020-07-10T00:00:00","FromHour":"08:30","ToHour":"13:00","Name":"  תחנה מרכזית                                  ","City":"באר שבע","Street":"יצחק בן צבי","NumHouse":"","AccountType":"","lon":34.796741,"lat":31.243017},{"DateDonation":"2020-07-10T00:00:00","FromHour":"08:30","ToHour":"12:30","Name":"תחנת מגן דוד אדום","City":"טבריה","Street":"הבנים מול מלון לאונרדו","NumHouse":"1","AccountType":" - תחנת מד\"א","lon":35.5407268,"lat":32.785899},{"DateDonation":"2020-07-10T00:00:00","FromHour":"08:00","ToHour":"12:30","Name":"  רח' החשמונאים 75, קרית מוצקין                      ","City":"קרית מוצקין","Street":"החשמונאים","NumHouse":"75","AccountType":" - תחנת מד\"א","lon":35.0802042,"lat":32.8440668},{"DateDonation":"2020-07-10T00:00:00","FromHour":"08:00","ToHour":"12:30","Name":"  רח' יצחק שדה 10, חיפה                              ","City":"חיפה","Street":"","NumHouse":"","AccountType":" - תחנת מד\"א","lon":34.9882598,"lat":32.824678},{"DateDonation":"2020-07-10T00:00:00","FromHour":"09:00","ToHour":"13:30","Name":"כורזין ליד בנק הפועלים","City":"גבעתיים","Street":"כורזין","NumHouse":"","AccountType":"","lon":34.8161391,"lat":32.0597995},{"DateDonation":"2020-07-10T00:00:00","FromHour":"08:30","ToHour":"13:30","Name":"מתחם מרכז העיר","City":"הרצליה","Street":"סוקולוב פינת בן גוריון","NumHouse":"","AccountType":"","lon":34.844675,"lat":32.162413},{"DateDonation":"2020-07-10T00:00:00","FromHour":"08:00","ToHour":"12:30","Name":"","City":"חולון","Street":"הרוקמים","NumHouse":"1","AccountType":" - תחנת מד\"א","lon":34.787384,"lat":32.015833},{"DateDonation":"2020-07-10T00:00:00","FromHour":"08:00","ToHour":"12:30","Name":"","City":"רחובות","Street":"0363","NumHouse":"69","AccountType":" - תחנת מד\"א","lon":34.81650279999999,"lat":31.8994247},{"DateDonation":"2020-07-10T00:00:00","FromHour":"09:00","ToHour":"12:45","Name":"משביר י-ם","City":"ירושלים","Street":"המלך ג'ורג'","NumHouse":"20","AccountType":"","lon":35.2198589,"lat":31.7818019},{"DateDonation":"2020-07-10T00:00:00","FromHour":"08:00","ToHour":"12:30","Name":"  המ'ג 7 רוממה                                       ","City":"ירושלים","Street":"המ\"ג","NumHouse":"7","AccountType":" - תחנת מד\"א","lon":35.1996482,"lat":31.7916038},{"DateDonation":"2020-07-10T00:00:00","FromHour":"08:00","ToHour":"12:30","Name":"","City":"רמת גן","Street":"בית חולים תה\"ש","NumHouse":"","AccountType":" - שרותי הדם מד\"א","lon":34.824785,"lat":32.068424},{"DateDonation":"2020-07-12T00:00:00","FromHour":"08:00","ToHour":"14:30","Name":"","City":"רמת גן","Street":"בית חולים תה\"ש","NumHouse":"","AccountType":" - שרותי הדם מד\"א","lon":34.824785,"lat":32.068424},{"DateDonation":"2020-07-12T00:00:00","FromHour":"17:00","ToHour":"21:00","Name":"  מועדון                                             ","City":"שדה יעקב","Street":"","NumHouse":"","AccountType":"","lon":35.141315,"lat":32.69756},{"DateDonation":"2020-07-12T00:00:00","FromHour":"14:00","ToHour":"20:00","Name":"מרכז מסחרי","City":"ביתן אהרן","Street":"","NumHouse":"","AccountType":"","lon":34.86956,"lat":32.364928},{"DateDonation":"2020-07-12T00:00:00","FromHour":"14:00","ToHour":"20:00","Name":"מרכז מסחרי","City":"ביתן אהרן","Street":"","NumHouse":"","AccountType":"","lon":34.86956,"lat":32.364928},{"DateDonation":"2020-07-12T00:00:00","FromHour":"10:00","ToHour":"16:30","Name":"משביר י-ם","City":"ירושלים","Street":"המלך ג'ורג'","NumHouse":"20","AccountType":"","lon":35.2198589,"lat":31.7818019},{"DateDonation":"2020-07-12T00:00:00","FromHour":"08:00","ToHour":"16:45","Name":"  המ'ג 7 רוממה                                       ","City":"ירושלים","Street":"המ\"ג","NumHouse":"7","AccountType":" - תחנת מד\"א","lon":35.1996482,"lat":31.7916038},{"DateDonation":"2020-07-13T00:00:00","FromHour":"10:00","ToHour":"16:30","Name":"משביר י-ם","City":"ירושלים","Street":"המלך ג'ורג'","NumHouse":"20","AccountType":"","lon":35.2198589,"lat":31.7818019},{"DateDonation":"2020-07-13T00:00:00","FromHour":"17:00","ToHour":"22:00","Name":"מבנה רב תכליתי","City":"בת עין","Street":"","NumHouse":"","AccountType":"","lon":35.101101,"lat":31.657653},{"DateDonation":"2020-07-13T00:00:00","FromHour":"16:00","ToHour":"21:30","Name":"רמת גן כיכר אורדע","City":"רמת גן","Street":"","NumHouse":"","AccountType":"","lon":34.8146462,"lat":32.0836597},{"DateDonation":"2020-07-13T00:00:00","FromHour":"16:00","ToHour":"21:30","Name":"רמת גן כיכר אורדע","City":"רמת גן","Street":"","NumHouse":"","AccountType":"","lon":34.8146462,"lat":32.0836597},{"DateDonation":"2020-07-13T00:00:00","FromHour":"08:00","ToHour":"14:30","Name":"","City":"רמת גן","Street":"בית חולים תה\"ש","NumHouse":"","AccountType":" - שרותי הדם מד\"א","lon":34.824785,"lat":32.068424},{"DateDonation":"2020-07-13T00:00:00","FromHour":"16:00","ToHour":"20:00","Name":"  מועדון לחבר                                        ","City":"כינרת קבוצה","Street":"","NumHouse":"","AccountType":"","lon":35.5627477,"lat":32.7142102},{"DateDonation":"2020-07-14T00:00:00","FromHour":"08:00","ToHour":"18:00","Name":"","City":"רמת גן","Street":"בית חולים תה\"ש","NumHouse":"","AccountType":" - שרותי הדם מד\"א","lon":34.824785,"lat":32.068424},{"DateDonation":"2020-07-14T00:00:00","FromHour":"10:00","ToHour":"16:30","Name":"משביר י-ם","City":"ירושלים","Street":"המלך ג'ורג'","NumHouse":"20","AccountType":"","lon":35.2198589,"lat":31.7818019},{"DateDonation":"2020-07-14T00:00:00","FromHour":"13:00","ToHour":"20:00","Name":"  המ'ג 7 רוממה                                       ","City":"ירושלים","Street":"המ\"ג","NumHouse":"7","AccountType":" - תחנת מד\"א","lon":35.1996482,"lat":31.7916038},{"DateDonation":"2020-07-14T00:00:00","FromHour":"09:00","ToHour":"15:00","Name":"בית המשפט נצרת עלית                                         ","City":"נצרת עילית","Street":"","NumHouse":"","AccountType":"","lon":35.324812,"lat":32.711539},{"DateDonation":"2020-07-14T00:00:00","FromHour":"16:30","ToHour":"20:30","Name":"אולם גדול מתחת לביהכנ\"ס                         ","City":"גבעת אבני","Street":"","NumHouse":"","AccountType":"","lon":35.436154,"lat":32.775382},{"DateDonation":"2020-07-14T00:00:00","FromHour":"17:00","ToHour":"22:00","Name":"","City":"","Street":"","NumHouse":"","AccountType":"","lon":0,"lat":0},{"DateDonation":"2020-07-14T00:00:00","FromHour":"13:00","ToHour":"19:00","Name":"שכונת הדר יוסף","City":"תל אביב יפו","Street":"קהילת קייב","NumHouse":"3","AccountType":"","lon":34.823604,"lat":32.108459},{"DateDonation":"2020-07-15T00:00:00","FromHour":"09:00","ToHour":"14:00","Name":"יקבי רמה\"ג                                    ","City":"קצרין","Street":"","NumHouse":"","AccountType":"","lon":35.689865,"lat":32.990998},{"DateDonation":"2020-07-15T00:00:00","FromHour":"17:00","ToHour":"22:00","Name":"  מרכז פיס                                           ","City":"פסגות","Street":"","NumHouse":"","AccountType":"","lon":0,"lat":0},{"DateDonation":"2020-07-15T00:00:00","FromHour":"10:00","ToHour":"16:30","Name":"משביר י-ם","City":"ירושלים","Street":"המלך ג'ורג'","NumHouse":"20","AccountType":"","lon":35.2198589,"lat":31.7818019},{"DateDonation":"2020-07-15T00:00:00","FromHour":"09:00","ToHour":"16:00","Name":"  המ'ג 7 רוממה                                       ","City":"ירושלים","Street":"המ\"ג","NumHouse":"7","AccountType":" - תחנת מד\"א","lon":35.1996482,"lat":31.7916038},{"DateDonation":"2020-07-15T00:00:00","FromHour":"08:00","ToHour":"14:30","Name":"","City":"רמת גן","Street":"בית חולים תה\"ש","NumHouse":"","AccountType":" - שרותי הדם מד\"א","lon":34.824785,"lat":32.068424},{"DateDonation":"2020-07-15T00:00:00","FromHour":"16:00","ToHour":"20:00","Name":"  מועדון לחבר                                        ","City":"שניר","Street":"","NumHouse":"","AccountType":"","lon":0,"lat":0},{"DateDonation":"2020-07-15T00:00:00","FromHour":"16:00","ToHour":"20:00","Name":"  חדר אוכל                                           ","City":"מולדת","Street":"ד.נ. גלבוע","NumHouse":"","AccountType":"","lon":34.7856881,"lat":32.0764626},{"DateDonation":"2020-07-15T00:00:00","FromHour":"18:00","ToHour":"22:00","Name":"בית התרבות המחודש                                         ","City":"כפר הס","Street":"","NumHouse":"","AccountType":"","lon":34.90512289999999,"lat":32.1768487},{"DateDonation":"2020-07-16T00:00:00","FromHour":"15:00","ToHour":"21:00","Name":"מרכז מחמוד דארוויש","City":"עראבה","Street":"","NumHouse":"","AccountType":"","lon":35.337167,"lat":32.853705},{"DateDonation":"2020-07-16T00:00:00","FromHour":"17:00","ToHour":"21:30","Name":"שריגים-לי און","City":"שריגים","Street":"","NumHouse":"","AccountType":"","lon":34.93509,"lat":31.678567},{"DateDonation":"2020-07-16T00:00:00","FromHour":"16:00","ToHour":"20:00","Name":"מועדון לחבר                                      ","City":"היוגב","Street":"","NumHouse":"","AccountType":"","lon":35.207483,"lat":32.612753},{"DateDonation":"2020-07-16T00:00:00","FromHour":"18:00","ToHour":"22:00","Name":"מועדון קטן","City":"שמשית","Street":"","NumHouse":"","AccountType":"","lon":35.246518,"lat":32.732527},{"DateDonation":"2020-07-16T00:00:00","FromHour":"08:00","ToHour":"14:30","Name":"","City":"רמת גן","Street":"בית חולים תה\"ש","NumHouse":"","AccountType":" - שרותי הדם מד\"א","lon":34.824785,"lat":32.068424},{"DateDonation":"2020-07-16T00:00:00","FromHour":"09:00","ToHour":"16:00","Name":"  המ'ג 7 רוממה                                       ","City":"ירושלים","Street":"המ\"ג","NumHouse":"7","AccountType":" - תחנת מד\"א","lon":35.1996482,"lat":31.7916038},{"DateDonation":"2020-07-16T00:00:00","FromHour":"10:00","ToHour":"16:30","Name":"משביר י-ם","City":"ירושלים","Street":"המלך ג'ורג'","NumHouse":"20","AccountType":"","lon":35.2198589,"lat":31.7818019},{"DateDonation":"2020-07-17T00:00:00","FromHour":"08:00","ToHour":"12:30","Name":"  המ'ג 7 רוממה                                       ","City":"ירושלים","Street":"המ\"ג","NumHouse":"7","AccountType":" - תחנת מד\"א","lon":35.1996482,"lat":31.7916038},{"DateDonation":"2020-07-17T00:00:00","FromHour":"09:00","ToHour":"12:45","Name":"משביר י-ם","City":"ירושלים","Street":"המלך ג'ורג'","NumHouse":"20","AccountType":"","lon":35.2198589,"lat":31.7818019},{"DateDonation":"2020-07-17T00:00:00","FromHour":"08:30","ToHour":"12:30","Name":"תחנת מגן דוד אדום","City":"טבריה","Street":"הבנים מול מלון לאונרדו","NumHouse":"1","AccountType":" - תחנת מד\"א","lon":35.5407268,"lat":32.785899},{"DateDonation":"2020-07-17T00:00:00","FromHour":"08:00","ToHour":"12:30","Name":"","City":"רמת גן","Street":"בית חולים תה\"ש","NumHouse":"","AccountType":" - שרותי הדם מד\"א","lon":34.824785,"lat":32.068424},{"DateDonation":"2020-07-17T00:00:00","FromHour":"08:00","ToHour":"12:30","Name":"","City":"חיפה","Street":"יצחק שדה","NumHouse":"10","AccountType":" - תחנת מד\"א","lon":34.989571,"lat":32.7940463},{"DateDonation":"2020-07-17T00:00:00","FromHour":"08:00","ToHour":"12:30","Name":"","City":"רחובות","Street":"0363","NumHouse":"69","AccountType":" - תחנת מד\"א","lon":34.81650279999999,"lat":31.8994247},{"DateDonation":"2020-07-17T00:00:00","FromHour":"08:00","ToHour":"12:30","Name":"","City":"קרית מוצקין","Street":"החשמונאים","NumHouse":"75","AccountType":" - תחנת מד\"א","lon":35.079523,"lat":32.838202},{"DateDonation":"2020-07-17T00:00:00","FromHour":"08:00","ToHour":"12:30","Name":"","City":"חולון","Street":"הרוקמים","NumHouse":"1","AccountType":" - תחנת מד\"א","lon":34.787384,"lat":32.015833},{"DateDonation":"2020-07-19T00:00:00","FromHour":"08:00","ToHour":"14:30","Name":"","City":"רמת גן","Street":"בית חולים תה\"ש","NumHouse":"","AccountType":" - שרותי הדם מד\"א","lon":34.824785,"lat":32.068424},{"DateDonation":"2020-07-19T00:00:00","FromHour":"10:00","ToHour":"16:30","Name":"משביר י-ם","City":"ירושלים","Street":"המלך ג'ורג'","NumHouse":"20","AccountType":"","lon":35.2198589,"lat":31.7818019},{"DateDonation":"2020-07-19T00:00:00","FromHour":"08:00","ToHour":"16:45","Name":"  המ'ג 7 רוממה                                       ","City":"ירושלים","Street":"המ\"ג","NumHouse":"7","AccountType":" - תחנת מד\"א","lon":35.1996482,"lat":31.7916038},{"DateDonation":"2020-07-20T00:00:00","FromHour":"10:00","ToHour":"16:30","Name":"משביר י-ם","City":"ירושלים","Street":"המלך ג'ורג'","NumHouse":"20","AccountType":"","lon":35.2198589,"lat":31.7818019},{"DateDonation":"2020-07-20T00:00:00","FromHour":"16:00","ToHour":"21:30","Name":"מרום נווה ","City":"רמת גן","Street":"מרכז מסחרי","NumHouse":"","AccountType":"","lon":34.8292145,"lat":32.0717682},{"DateDonation":"2020-07-20T00:00:00","FromHour":"08:00","ToHour":"14:30","Name":"","City":"רמת גן","Street":"בית חולים תה\"ש","NumHouse":"","AccountType":" - שרותי הדם מד\"א","lon":34.824785,"lat":32.068424},{"DateDonation":"2020-07-21T00:00:00","FromHour":"08:00","ToHour":"18:00","Name":"","City":"רמת גן","Street":"בית חולים תה\"ש","NumHouse":"","AccountType":" - שרותי הדם מד\"א","lon":34.824785,"lat":32.068424},{"DateDonation":"2020-07-21T00:00:00","FromHour":"10:00","ToHour":"16:30","Name":"משביר י-ם","City":"ירושלים","Street":"המלך ג'ורג'","NumHouse":"20","AccountType":"","lon":35.2198589,"lat":31.7818019},{"DateDonation":"2020-07-21T00:00:00","FromHour":"13:00","ToHour":"20:00","Name":"  המ'ג 7 רוממה                                       ","City":"ירושלים","Street":"המ\"ג","NumHouse":"7","AccountType":" - תחנת מד\"א","lon":35.1996482,"lat":31.7916038},{"DateDonation":"2020-07-22T00:00:00","FromHour":"10:00","ToHour":"16:30","Name":"משביר י-ם","City":"ירושלים","Street":"המלך ג'ורג'","NumHouse":"20","AccountType":"","lon":35.2198589,"lat":31.7818019},{"DateDonation":"2020-07-22T00:00:00","FromHour":"09:00","ToHour":"16:00","Name":"  המ'ג 7 רוממה                                       ","City":"ירושלים","Street":"המ\"ג","NumHouse":"7","AccountType":" - תחנת מד\"א","lon":35.1996482,"lat":31.7916038},{"DateDonation":"2020-07-22T00:00:00","FromHour":"08:00","ToHour":"14:30","Name":"","City":"רמת גן","Street":"בית חולים תה\"ש","NumHouse":"","AccountType":" - שרותי הדם מד\"א","lon":34.824785,"lat":32.068424},{"DateDonation":"2020-07-23T00:00:00","FromHour":"08:00","ToHour":"14:30","Name":"","City":"רמת גן","Street":"בית חולים תה\"ש","NumHouse":"","AccountType":" - שרותי הדם מד\"א","lon":34.824785,"lat":32.068424},{"DateDonation":"2020-07-23T00:00:00","FromHour":"17:30","ToHour":"21:30","Name":"מבואה אולם ספורט                              ","City":"גבעת אלה","Street":"","NumHouse":"","AccountType":"","lon":35.244822,"lat":32.722007},{"DateDonation":"2020-07-23T00:00:00","FromHour":"09:00","ToHour":"16:00","Name":"  המ'ג 7 רוממה                                       ","City":"ירושלים","Street":"המ\"ג","NumHouse":"7","AccountType":" - תחנת מד\"א","lon":35.1996482,"lat":31.7916038},{"DateDonation":"2020-07-23T00:00:00","FromHour":"10:00","ToHour":"16:30","Name":"משביר י-ם","City":"ירושלים","Street":"המלך ג'ורג'","NumHouse":"20","AccountType":"","lon":35.2198589,"lat":31.7818019},{"DateDonation":"2020-07-23T00:00:00","FromHour":"12:00","ToHour":"19:00","Name":"אולם ספורט","City":"לוד","Street":"יעקב פלומניק","NumHouse":"","AccountType":"","lon":34.888075,"lat":31.951014},{"DateDonation":"2020-07-24T00:00:00","FromHour":"08:30","ToHour":"12:30","Name":"תחנת מגן דוד אדום","City":"טבריה","Street":"הבנים מול מלון לאונרדו","NumHouse":"1","AccountType":" - תחנת מד\"א","lon":35.5407268,"lat":32.785899},{"DateDonation":"2020-07-24T00:00:00","FromHour":"09:00","ToHour":"12:45","Name":"משביר י-ם","City":"ירושלים","Street":"המלך ג'ורג'","NumHouse":"20","AccountType":"","lon":35.2198589,"lat":31.7818019},{"DateDonation":"2020-07-24T00:00:00","FromHour":"08:00","ToHour":"12:30","Name":"  המ'ג 7 רוממה                                       ","City":"ירושלים","Street":"המ\"ג","NumHouse":"7","AccountType":" - תחנת מד\"א","lon":35.1996482,"lat":31.7916038},{"DateDonation":"2020-07-24T00:00:00","FromHour":"08:00","ToHour":"12:30","Name":"","City":"רמת גן","Street":"בית חולים תה\"ש","NumHouse":"","AccountType":" - שרותי הדם מד\"א","lon":34.824785,"lat":32.068424},{"DateDonation":"2020-07-24T00:00:00","FromHour":"08:00","ToHour":"12:30","Name":"","City":"קרית מוצקין","Street":"החשמונאים","NumHouse":"75","AccountType":" - תחנת מד\"א","lon":35.079523,"lat":32.838202},{"DateDonation":"2020-07-24T00:00:00","FromHour":"08:00","ToHour":"12:30","Name":"","City":"רחובות","Street":"0363","NumHouse":"69","AccountType":" - תחנת מד\"א","lon":34.81650279999999,"lat":31.8994247},{"DateDonation":"2020-07-24T00:00:00","FromHour":"08:00","ToHour":"12:30","Name":"","City":"חיפה","Street":"יצחק שדה","NumHouse":"10","AccountType":" - תחנת מד\"א","lon":34.989571,"lat":32.7940463},{"DateDonation":"2020-07-24T00:00:00","FromHour":"08:00","ToHour":"12:30","Name":"","City":"חולון","Street":"הרוקמים","NumHouse":"1","AccountType":" - תחנת מד\"א","lon":34.787384,"lat":32.015833},{"DateDonation":"2020-07-26T00:00:00","FromHour":"08:00","ToHour":"14:30","Name":"","City":"רמת גן","Street":"בית חולים תה\"ש","NumHouse":"","AccountType":" - שרותי הדם מד\"א","lon":34.824785,"lat":32.068424},{"DateDonation":"2020-07-26T00:00:00","FromHour":"08:00","ToHour":"16:45","Name":"  המ'ג 7 רוממה                                       ","City":"ירושלים","Street":"המ\"ג","NumHouse":"7","AccountType":" - תחנת מד\"א","lon":35.1996482,"lat":31.7916038},{"DateDonation":"2020-07-26T00:00:00","FromHour":"10:00","ToHour":"16:30","Name":"משביר י-ם","City":"ירושלים","Street":"המלך ג'ורג'","NumHouse":"20","AccountType":"","lon":35.2198589,"lat":31.7818019},{"DateDonation":"2020-07-27T00:00:00","FromHour":"10:00","ToHour":"16:30","Name":"משביר י-ם","City":"ירושלים","Street":"המלך ג'ורג'","NumHouse":"20","AccountType":"","lon":35.2198589,"lat":31.7818019},{"DateDonation":"2020-07-27T00:00:00","FromHour":"08:00","ToHour":"14:30","Name":"","City":"רמת גן","Street":"בית חולים תה\"ש","NumHouse":"","AccountType":" - שרותי הדם מד\"א","lon":34.824785,"lat":32.068424},{"DateDonation":"2020-07-28T00:00:00","FromHour":"08:00","ToHour":"18:00","Name":"","City":"רמת גן","Street":"בית חולים תה\"ש","NumHouse":"","AccountType":" - שרותי הדם מד\"א","lon":34.824785,"lat":32.068424},{"DateDonation":"2020-07-28T00:00:00","FromHour":"10:00","ToHour":"16:30","Name":"משביר י-ם","City":"ירושלים","Street":"המלך ג'ורג'","NumHouse":"20","AccountType":"","lon":35.2198589,"lat":31.7818019},{"DateDonation":"2020-07-28T00:00:00","FromHour":"13:00","ToHour":"20:00","Name":"  המ'ג 7 רוממה                                       ","City":"ירושלים","Street":"המ\"ג","NumHouse":"7","AccountType":" - תחנת מד\"א","lon":35.1996482,"lat":31.7916038},{"DateDonation":"2020-07-29T00:00:00","FromHour":"10:00","ToHour":"16:30","Name":"משביר י-ם","City":"ירושלים","Street":"המלך ג'ורג'","NumHouse":"20","AccountType":"","lon":35.2198589,"lat":31.7818019},{"DateDonation":"2020-07-29T00:00:00","FromHour":"09:00","ToHour":"16:00","Name":"  המ'ג 7 רוממה                                       ","City":"ירושלים","Street":"המ\"ג","NumHouse":"7","AccountType":" - תחנת מד\"א","lon":35.1996482,"lat":31.7916038},{"DateDonation":"2020-07-29T00:00:00","FromHour":"08:00","ToHour":"14:30","Name":"","City":"רמת גן","Street":"בית חולים תה\"ש","NumHouse":"","AccountType":" - שרותי הדם מד\"א","lon":34.824785,"lat":32.068424},{"DateDonation":"2020-07-30T00:00:00","FromHour":"08:00","ToHour":"14:30","Name":"","City":"רמת גן","Street":"בית חולים תה\"ש","NumHouse":"","AccountType":" - שרותי הדם מד\"א","lon":34.824785,"lat":32.068424},{"DateDonation":"2020-07-30T00:00:00","FromHour":"10:00","ToHour":"16:30","Name":"משביר י-ם","City":"ירושלים","Street":"המלך ג'ורג'","NumHouse":"20","AccountType":"","lon":35.2198589,"lat":31.7818019},{"DateDonation":"2020-07-30T00:00:00","FromHour":"09:00","ToHour":"16:00","Name":"  המ'ג 7 רוממה                                       ","City":"ירושלים","Street":"המ\"ג","NumHouse":"7","AccountType":" - תחנת מד\"א","lon":35.1996482,"lat":31.7916038},{"DateDonation":"2020-07-31T00:00:00","FromHour":"08:30","ToHour":"12:30","Name":"תחנת מגן דוד אדום","City":"טבריה","Street":"הבנים מול מלון לאונרדו","NumHouse":"1","AccountType":" - תחנת מד\"א","lon":35.5407268,"lat":32.785899},{"DateDonation":"2020-07-31T00:00:00","FromHour":"08:00","ToHour":"13:30","Name":"  מתנ\"ס כפר יונה                                     ","City":"כפר יונה","Street":"מנחם בגין","NumHouse":"","AccountType":"","lon":34.9355556,"lat":32.3163889},{"DateDonation":"2020-07-31T00:00:00","FromHour":"08:00","ToHour":"13:30","Name":"  מתנ\"ס כפר יונה                                     ","City":"כפר יונה","Street":"מנחם בגין","NumHouse":"","AccountType":"","lon":34.9355556,"lat":32.3163889},{"DateDonation":"2020-07-31T00:00:00","FromHour":"08:30","ToHour":"13:30","Name":"  שכ' נוה אפק                                        ","City":"ראש העין","Street":"בזק פינת ברקן","NumHouse":"","AccountType":"","lon":34.978091,"lat":32.094259},{"DateDonation":"2020-07-31T00:00:00","FromHour":"08:00","ToHour":"12:30","Name":"  המ'ג 7 רוממה                                       ","City":"ירושלים","Street":"המ\"ג","NumHouse":"7","AccountType":" - תחנת מד\"א","lon":35.1996482,"lat":31.7916038},{"DateDonation":"2020-07-31T00:00:00","FromHour":"09:00","ToHour":"12:45","Name":"משביר י-ם","City":"ירושלים","Street":"המלך ג'ורג'","NumHouse":"20","AccountType":"","lon":35.2198589,"lat":31.7818019},{"DateDonation":"2020-07-31T00:00:00","FromHour":"08:00","ToHour":"12:30","Name":"","City":"רמת גן","Street":"בית חולים תה\"ש","NumHouse":"","AccountType":" - שרותי הדם מד\"א","lon":34.824785,"lat":32.068424},{"DateDonation":"2020-07-31T00:00:00","FromHour":"08:00","ToHour":"12:30","Name":"","City":"חולון","Street":"הרוקמים","NumHouse":"1","AccountType":" - תחנת מד\"א","lon":34.787384,"lat":32.015833},{"DateDonation":"2020-07-31T00:00:00","FromHour":"08:00","ToHour":"12:30","Name":"","City":"חיפה","Street":"יצחק שדה","NumHouse":"10","AccountType":" - תחנת מד\"א","lon":34.989571,"lat":32.7940463},{"DateDonation":"2020-07-31T00:00:00","FromHour":"08:00","ToHour":"12:30","Name":"","City":"רחובות","Street":"0363","NumHouse":"69","AccountType":" - תחנת מד\"א","lon":34.81650279999999,"lat":31.8994247},{"DateDonation":"2020-07-31T00:00:00","FromHour":"08:00","ToHour":"12:30","Name":"","City":"קרית מוצקין","Street":"החשמונאים","NumHouse":"75","AccountType":" - ��חנת מד\"א","lon":35.079523,"lat":32.838202},{"DateDonation":"2020-08-02T00:00:00","FromHour":"08:00","ToHour":"14:30","Name":"","City":"רמת גן","Street":"בית חולים תה\"ש","NumHouse":"","AccountType":" - שרותי הדם מד\"א","lon":34.824785,"lat":32.068424},{"DateDonation":"2020-08-02T00:00:00","FromHour":"10:00","ToHour":"16:30","Name":"משביר י-ם","City":"ירושלים","Street":"המלך ג'ורג'","NumHouse":"20","AccountType":"","lon":35.2198589,"lat":31.7818019},{"DateDonation":"2020-08-02T00:00:00","FromHour":"08:00","ToHour":"16:45","Name":"  המ'ג 7 רוממה                                       ","City":"ירושלים","Street":"המ\"ג","NumHouse":"7","AccountType":" - תחנת מד\"א","lon":35.1996482,"lat":31.7916038},{"DateDonation":"2020-08-03T00:00:00","FromHour":"10:00","ToHour":"16:30","Name":"משביר י-ם","City":"ירושלים","Street":"המלך ג'ורג'","NumHouse":"20","AccountType":"","lon":35.2198589,"lat":31.7818019},{"DateDonation":"2020-08-03T00:00:00","FromHour":"15:00","ToHour":"21:00","Name":"בני עקיבא אור יהודה","City":"אור יהודה","Street":"משה חייק ","NumHouse":"34","AccountType":"","lon":34.85617300000001,"lat":32.029748},{"DateDonation":"2020-08-03T00:00:00","FromHour":"08:00","ToHour":"14:30","Name":"","City":"רמת גן","Street":"בית חולים תה\"ש","NumHouse":"","AccountType":" - שרותי הדם מד\"א","lon":34.824785,"lat":32.068424},{"DateDonation":"2020-08-04T00:00:00","FromHour":"10:00","ToHour":"16:30","Name":"משביר י-ם","City":"ירושלים","Street":"המלך ג'ורג'","NumHouse":"20","AccountType":"","lon":35.2198589,"lat":31.7818019},{"DateDonation":"2020-08-04T00:00:00","FromHour":"13:00","ToHour":"20:00","Name":"  המ'ג 7 רוממה                                       ","City":"ירושלים","Street":"המ\"ג","NumHouse":"7","AccountType":" - תחנת מד\"א","lon":35.1996482,"lat":31.7916038},{"DateDonation":"2020-08-04T00:00:00","FromHour":"08:00","ToHour":"18:00","Name":"","City":"רמת גן","Street":"בית חולים תה\"ש","NumHouse":"","AccountType":" - שרותי הדם מד\"א","lon":34.824785,"lat":32.068424},{"DateDonation":"2020-08-05T00:00:00","FromHour":"08:00","ToHour":"14:30","Name":"","City":"רמת גן","Street":"בית חולים תה\"ש","NumHouse":"","AccountType":" - שרותי הדם מד\"א","lon":34.824785,"lat":32.068424},{"DateDonation":"2020-08-05T00:00:00","FromHour":"16:00","ToHour":"20:00","Name":"  מועדון                                             ","City":"רמות","Street":"","NumHouse":"","AccountType":"","lon":0,"lat":0},{"DateDonation":"2020-08-05T00:00:00","FromHour":"09:00","ToHour":"16:00","Name":"  המ'ג 7 רוממה                                       ","City":"ירושלים","Street":"המ\"ג","NumHouse":"7","AccountType":" - תחנת מד\"א","lon":35.1996482,"lat":31.7916038},{"DateDonation":"2020-08-05T00:00:00","FromHour":"10:00","ToHour":"16:30","Name":"משביר י-ם","City":"ירושלים","Street":"המלך ג'ורג'","NumHouse":"20","AccountType":"","lon":35.2198589,"lat":31.7818019},{"DateDonation":"2020-08-06T00:00:00","FromHour":"10:00","ToHour":"16:30","Name":"משביר י-ם","City":"ירושלים","Street":"המלך ג'ורג'","NumHouse":"20","AccountType":"","lon":35.2198589,"lat":31.7818019},{"DateDonation":"2020-08-06T00:00:00","FromHour":"09:00","ToHour":"16:00","Name":"  המ'ג 7 רוממה                                       ","City":"ירושלים","Street":"המ\"ג","NumHouse":"7","AccountType":" - תחנת מד\"א","lon":35.1996482,"lat":31.7916038},{"DateDonation":"2020-08-06T00:00:00","FromHour":"08:00","ToHour":"14:30","Name":"","City":"רמת גן","Street":"בית חולים תה\"ש","NumHouse":"","AccountType":" - שרותי הדם מד\"א","lon":34.824785,"lat":32.068424},{"DateDonation":"2020-08-07T00:00:00","FromHour":"08:00","ToHour":"12:30","Name":"","City":"רמת גן","Street":"בית חולים תה\"ש","NumHouse":"","AccountType":" - שרותי הדם מד\"א","lon":34.824785,"lat":32.068424},{"DateDonation":"2020-08-07T00:00:00","FromHour":"08:00","ToHour":"12:30","Name":"","City":"רחובות","Street":"0363","NumHouse":"69","AccountType":" - תחנת מד\"א","lon":34.81650279999999,"lat":31.8994247},{"DateDonation":"2020-08-07T00:00:00","FromHour":"08:00","ToHour":"12:30","Name":"","City":"קרית מוצקין","Street":"החשמונאים","NumHouse":"75","AccountType":" - תחנת מד\"א","lon":35.079523,"lat":32.838202},{"DateDonation":"2020-08-07T00:00:00","FromHour":"08:00","ToHour":"12:30","Name":"","City":"חיפה","Street":"יצחק שדה","NumHouse":"10","AccountType":" - תחנת מד\"א","lon":34.989571,"lat":32.7940463},{"DateDonation":"2020-08-07T00:00:00","FromHour":"08:00","ToHour":"12:30","Name":"","City":"חולון","Street":"הרוקמים","NumHouse":"1","AccountType":" - תחנת מד\"א","lon":34.787384,"lat":32.015833},{"DateDonation":"2020-08-07T00:00:00","FromHour":"08:00","ToHour":"12:30","Name":"  המ'ג 7 רוממה                                       ","City":"ירושלים","Street":"המ\"ג","NumHouse":"7","AccountType":" - תחנת מד\"א","lon":35.1996482,"lat":31.7916038},{"DateDonation":"2020-08-07T00:00:00","FromHour":"09:00","ToHour":"12:45","Name":"משביר י-ם","City":"ירושלים","Street":"המלך ג'ורג'","NumHouse":"20","AccountType":"","lon":35.2198589,"lat":31.7818019},{"DateDonation":"2020-08-07T00:00:00","FromHour":"08:30","ToHour":"12:30","Name":"תחנת מגן דוד אדום","City":"טבריה","Street":"הבנים מול מלון לאונרדו","NumHouse":"1","AccountType":" - תחנת מד\"א","lon":35.5407268,"lat":32.785899},{"DateDonation":"2020-08-09T00:00:00","FromHour":"08:00","ToHour":"16:45","Name":"  המ'ג 7 רוממה                                       ","City":"ירושלים","Street":"המ\"ג","NumHouse":"7","AccountType":" - תחנת מד\"א","lon":35.1996482,"lat":31.7916038},{"DateDonation":"2020-08-09T00:00:00","FromHour":"10:00","ToHour":"16:30","Name":"משביר י-ם","City":"ירושלים","Street":"המלך ג'ורג'","NumHouse":"20","AccountType":"","lon":35.2198589,"lat":31.7818019},{"DateDonation":"2020-08-09T00:00:00","FromHour":"08:00","ToHour":"14:30","Name":"","City":"רמת גן","Street":"בית חולים תה\"ש","NumHouse":"","AccountType":" - שרותי הדם מד\"א","lon":34.824785,"lat":32.068424},{"DateDonation":"2020-08-09T00:00:00","FromHour":"16:30","ToHour":"20:30","Name":"  מועדון                                             ","City":"בית אלפא","Street":"","NumHouse":"","AccountType":"","lon":35.430499,"lat":32.516357},{"DateDonation":"2020-08-10T00:00:00","FromHour":"08:00","ToHour":"14:30","Name":"","City":"רמת גן","Street":"בית חולים תה\"ש","NumHouse":"","AccountType":" - שרותי הדם מד\"א","lon":34.824785,"lat":32.068424},{"DateDonation":"2020-08-10T00:00:00","FromHour":"10:00","ToHour":"16:30","Name":"משביר י-ם","City":"ירושלים","Street":"המלך ג'ורג'","NumHouse":"20","AccountType":"","lon":35.2198589,"lat":31.7818019},{"DateDonation":"2020-08-11T00:00:00","FromHour":"10:00","ToHour":"16:30","Name":"משביר י-ם","City":"ירושלים","Street":"המלך ג'ורג'","NumHouse":"20","AccountType":"","lon":35.2198589,"lat":31.7818019},{"DateDonation":"2020-08-11T00:00:00","FromHour":"13:00","ToHour":"20:00","Name":"  המ'ג 7 רוממה                                       ","City":"ירושלים","Street":"המ\"ג","NumHouse":"7","AccountType":" - תחנת מד\"א","lon":35.1996482,"lat":31.7916038},{"DateDonation":"2020-08-11T00:00:00","FromHour":"08:00","ToHour":"18:00","Name":"","City":"רמת גן","Street":"בית חולים תה\"ש","NumHouse":"","AccountType":" - שרותי הדם מד\"א","lon":34.824785,"lat":32.068424},{"DateDonation":"2020-08-12T00:00:00","FromHour":"08:00","ToHour":"14:30","Name":"","City":"רמת גן","Street":"בית חולים תה\"ש","NumHouse":"","AccountType":" - שרותי הדם מד\"א","lon":34.824785,"lat":32.068424},{"DateDonation":"2020-08-12T00:00:00","FromHour":"10:00","ToHour":"16:30","Name":"משביר י-ם","City":"ירושלים","Street":"המלך ג'ורג'","NumHouse":"20","AccountType":"","lon":35.2198589,"lat":31.7818019},{"DateDonation":"2020-08-12T00:00:00","FromHour":"09:00","ToHour":"16:00","Name":"  המ'ג 7 רוממה                                       ","City":"ירושלים","Street":"המ\"ג","NumHouse":"7","AccountType":" - תחנת מד\"א","lon":35.1996482,"lat":31.7916038},{"DateDonation":"2020-08-13T00:00:00","FromHour":"09:00","ToHour":"16:00","Name":"  המ'ג 7 רוממה                                       ","City":"ירושלים","Street":"המ\"ג","NumHouse":"7","AccountType":" - תחנת מד\"א","lon":35.1996482,"lat":31.7916038},{"DateDonation":"2020-08-13T00:00:00","FromHour":"10:00","ToHour":"16:30","Name":"משביר י-ם","City":"ירושלים","Street":"המלך ג'ורג'","NumHouse":"20","AccountType":"","lon":35.2198589,"lat":31.7818019},{"DateDonation":"2020-08-13T00:00:00","FromHour":"08:00","ToHour":"14:30","Name":"","City":"רמת גן","Street":"בית חולים תה\"ש","NumHouse":"","AccountType":" - שרותי הדם מד\"א","lon":34.824785,"lat":32.068424},{"DateDonation":"2020-08-13T00:00:00","FromHour":"17:00","ToHour":"22:30","Name":"מועדון נוער נוף איילון                                        ","City":"נוף איילון","Street":"","NumHouse":"","AccountType":"","lon":34.988682,"lat":31.8687711},{"DateDonation":"2020-08-13T00:00:00","FromHour":"15:00","ToHour":"21:00","Name":"מתנ\"ס בועיינה","City":"בועיינה נוג'יידאת","Street":"","NumHouse":"","AccountType":"","lon":35.363107,"lat":32.804166},{"DateDonation":"2020-08-14T00:00:00","FromHour":"08:00","ToHour":"12:30","Name":"","City":"רמת גן","Street":"בית חולים תה\"ש","NumHouse":"","AccountType":" - שרותי הדם מד\"א","lon":34.824785,"lat":32.068424},{"DateDonation":"2020-08-14T00:00:00","FromHour":"08:00","ToHour":"12:30","Name":"","City":"חולון","Street":"הרוקמים","NumHouse":"1","AccountType":" - תחנת מד\"א","lon":34.787384,"lat":32.015833},{"DateDonation":"2020-08-14T00:00:00","FromHour":"08:00","ToHour":"12:30","Name":"","City":"חיפה","Street":"יצחק שדה","NumHouse":"10","AccountType":" - תחנת מד\"א","lon":34.989571,"lat":32.7940463},{"DateDonation":"2020-08-14T00:00:00","FromHour":"08:00","ToHour":"12:30","Name":"","City":"קרית מוצקין","Street":"החשמונאים","NumHouse":"75","AccountType":" - תחנת מד\"א","lon":35.079523,"lat":32.838202},{"DateDonation":"2020-08-14T00:00:00","FromHour":"08:00","ToHour":"12:30","Name":"","City":"רחובות","Street":"0363","NumHouse":"69","AccountType":" - תחנת מד\"א","lon":34.81650279999999,"lat":31.8994247},{"DateDonation":"2020-08-14T00:00:00","FromHour":"08:00","ToHour":"12:30","Name":"  המ'ג 7 רוממה                                       ","City":"ירושלים","Street":"המ\"ג","NumHouse":"7","AccountType":" - תחנת מד\"א","lon":35.1996482,"lat":31.7916038},{"DateDonation":"2020-08-14T00:00:00","FromHour":"09:00","ToHour":"12:45","Name":"משביר י-ם","City":"ירושלים","Street":"המלך ג'ורג'","NumHouse":"20","AccountType":"","lon":35.2198589,"lat":31.7818019},{"DateDonation":"2020-08-14T00:00:00","FromHour":"08:30","ToHour":"12:30","Name":"תחנת מגן דוד אדום","City":"טבריה","Street":"הבנים מול מלון לאונרדו","NumHouse":"1","AccountType":" - תחנת מד\"א","lon":35.5407268,"lat":32.785899},{"DateDonation":"2020-08-14T00:00:00","FromHour":"09:00","ToHour":"13:30","Name":"כורזין ליד בנק הפועלים","City":"גבעתיים","Street":"כורזין","NumHouse":"","AccountType":"","lon":34.8161391,"lat":32.0597995},{"DateDonation":"2020-08-16T00:00:00","FromHour":"08:00","ToHour":"16:45","Name":"  המ'ג 7 רוממה                                       ","City":"ירושלים","Street":"המ\"ג","NumHouse":"7","AccountType":" - תחנת מד\"א","lon":35.1996482,"lat":31.7916038},{"DateDonation":"2020-08-16T00:00:00","FromHour":"10:00","ToHour":"16:30","Name":"משביר י-ם","City":"ירושלים","Street":"המלך ג'ורג'","NumHouse":"20","AccountType":"","lon":35.2198589,"lat":31.7818019},{"DateDonation":"2020-08-16T00:00:00","FromHour":"16:30","ToHour":"19:00","Name":"","City":"ניר יצחק","Street":"ד.נ. נגב","NumHouse":"","AccountType":"","lon":34.356702,"lat":31.23604},{"DateDonation":"2020-08-16T00:00:00","FromHour":"08:00","ToHour":"14:30","Name":"","City":"רמת גן","Street":"בית חולים תה\"ש","NumHouse":"","AccountType":" - שרותי הדם מד\"א","lon":34.824785,"lat":32.068424},{"DateDonation":"2020-08-17T00:00:00","FromHour":"08:00","ToHour":"14:30","Name":"","City":"רמת גן","Street":"בית חולים תה\"ש","NumHouse":"","AccountType":" - שרותי הדם מד\"א","lon":34.824785,"lat":32.068424},{"DateDonation":"2020-08-17T00:00:00","FromHour":"10:00","ToHour":"16:30","Name":"משביר י-ם","City":"ירושלים","Street":"המלך ג'ורג'","NumHouse":"20","AccountType":"","lon":35.2198589,"lat":31.7818019},{"DateDonation":"2020-08-18T00:00:00","FromHour":"13:00","ToHour":"20:00","Name":"  המ'ג 7 רוממה                                       ","City":"ירושלים","Street":"המ\"ג","NumHouse":"7","AccountType":" - תחנת מד\"א","lon":35.1996482,"lat":31.7916038},{"DateDonation":"2020-08-18T00:00:00","FromHour":"10:00","ToHour":"16:30","Name":"משביר י-ם","City":"ירושלים","Street":"המלך ג'ורג'","NumHouse":"20","AccountType":"","lon":35.2198589,"lat":31.7818019},{"DateDonation":"2020-08-18T00:00:00","FromHour":"08:00","ToHour":"18:00","Name":"","City":"רמת גן","Street":"בית חולים תה\"ש","NumHouse":"","AccountType":" - שרותי הדם מד\"א","lon":34.824785,"lat":32.068424},{"DateDonation":"2020-08-19T00:00:00","FromHour":"08:00","ToHour":"14:30","Name":"","City":"רמת גן","Street":"בית חולים תה\"ש","NumHouse":"","AccountType":" - שרותי הדם מד\"א","lon":34.824785,"lat":32.068424},{"DateDonation":"2020-08-19T00:00:00","FromHour":"09:00","ToHour":"15:00","Name":"ינ\"ט ביריה","City":"ביריה","Street":"","NumHouse":"","AccountType":"","lon":35.503096,"lat":32.978108},{"DateDonation":"2020-08-19T00:00:00","FromHour":"09:00","ToHour":"16:00","Name":"  המ'ג 7 רוממה                                       ","City":"ירושלים","Street":"המ\"ג","NumHouse":"7","AccountType":" - תחנת מד\"א","lon":35.1996482,"lat":31.7916038},{"DateDonation":"2020-08-19T00:00:00","FromHour":"10:00","ToHour":"16:30","Name":"משביר י-ם","City":"ירושלים","Street":"המלך ג'ורג'","NumHouse":"20","AccountType":"","lon":35.2198589,"lat":31.7818019},{"DateDonation":"2020-08-20T00:00:00","FromHour":"10:00","ToHour":"16:30","Name":"משביר י-ם","City":"ירושלים","Street":"המלך ג'ורג'","NumHouse":"20","AccountType":"","lon":35.2198589,"lat":31.7818019},{"DateDonation":"2020-08-20T00:00:00","FromHour":"09:00","ToHour":"16:00","Name":"  המ'ג 7 רוממה                                       ","City":"ירושלים","Street":"המ\"ג","NumHouse":"7","AccountType":" - תחנת מד\"א","lon":35.1996482,"lat":31.7916038},{"DateDonation":"2020-08-20T00:00:00","FromHour":"08:00","ToHour":"14:30","Name":"","City":"רמת גן","Street":"בית חולים תה\"ש","NumHouse":"","AccountType":" - שרותי הדם מד\"א","lon":34.824785,"lat":32.068424},{"DateDonation":"2020-08-21T00:00:00","FromHour":"08:00","ToHour":"12:30","Name":"","City":"רמת גן","Street":"בית חולים תה\"ש","NumHouse":"","AccountType":" - שרותי הדם מד\"א","lon":34.824785,"lat":32.068424},{"DateDonation":"2020-08-21T00:00:00","FromHour":"08:00","ToHour":"12:30","Name":"","City":"רחובות","Street":"0363","NumHouse":"69","AccountType":" - תחנת מד\"א","lon":34.81650279999999,"lat":31.8994247},{"DateDonation":"2020-08-21T00:00:00","FromHour":"08:00","ToHour":"12:30","Name":"","City":"חיפה","Street":"יצחק שדה","NumHouse":"10","AccountType":" - תחנת מד\"א","lon":34.989571,"lat":32.7940463},{"DateDonation":"2020-08-21T00:00:00","FromHour":"08:00","ToHour":"12:30","Name":"","City":"חולון","Street":"הרוקמים","NumHouse":"1","AccountType":" - תחנת מד\"א","lon":34.787384,"lat":32.015833},{"DateDonation":"2020-08-21T00:00:00","FromHour":"08:00","ToHour":"12:30","Name":"","City":"קרית מוצקין","Street":"החשמונאים","NumHouse":"75","AccountType":" - תחנת מד\"א","lon":35.079523,"lat":32.838202},{"DateDonation":"2020-08-21T00:00:00","FromHour":"09:00","ToHour":"12:45","Name":"משביר י-ם","City":"ירושלים","Street":"המלך ג'ורג'","NumHouse":"20","AccountType":"","lon":35.2198589,"lat":31.7818019},{"DateDonation":"2020-08-21T00:00:00","FromHour":"08:00","ToHour":"12:30","Name":"  המ'ג 7 רוממה                                       ","City":"ירושלים","Street":"המ\"ג","NumHouse":"7","AccountType":" - תחנת מד\"א","lon":35.1996482,"lat":31.7916038},{"DateDonation":"2020-08-21T00:00:00","FromHour":"08:30","ToHour":"12:30","Name":"תחנת מגן דוד אדום","City":"טבריה","Street":"הבנים מול מלון לאונרדו","NumHouse":"1","AccountType":" - תחנת מד\"א","lon":35.5407268,"lat":32.785899},{"DateDonation":"2020-08-23T00:00:00","FromHour":"08:00","ToHour":"16:45","Name":"  המ'ג 7 רוממה                                       ","City":"ירושלים","Street":"המ\"ג","NumHouse":"7","AccountType":" - תחנת מד\"א","lon":35.1996482,"lat":31.7916038},{"DateDonation":"2020-08-23T00:00:00","FromHour":"10:00","ToHour":"16:30","Name":"משביר י-ם","City":"ירושלים","Street":"המלך ג'ורג'","NumHouse":"20","AccountType":"","lon":35.2198589,"lat":31.7818019},{"DateDonation":"2020-08-23T00:00:00","FromHour":"08:00","ToHour":"14:30","Name":"","City":"רמת גן","Street":"בית חולים תה\"ש","NumHouse":"","AccountType":" - שרותי הדם מד\"א","lon":34.824785,"lat":32.068424},{"DateDonation":"2020-08-24T00:00:00","FromHour":"08:00","ToHour":"14:30","Name":"","City":"רמת גן","Street":"בית חולים תה\"ש","NumHouse":"","AccountType":" - שרותי הדם מד\"א","lon":34.824785,"lat":32.068424},{"DateDonation":"2020-08-24T00:00:00","FromHour":"10:00","ToHour":"16:30","Name":"משביר י-ם","City":"ירושלים","Street":"המלך ג'ורג'","NumHouse":"20","AccountType":"","lon":35.2198589,"lat":31.7818019},{"DateDonation":"2020-08-25T00:00:00","FromHour":"10:00","ToHour":"16:30","Name":"משביר י-ם","City":"ירושלים","Street":"המלך ג'ורג'","NumHouse":"20","AccountType":"","lon":35.2198589,"lat":31.7818019},{"DateDonation":"2020-08-25T00:00:00","FromHour":"13:00","ToHour":"20:00","Name":"  המ'ג 7 רוממה                                       ","City":"ירושלים","Street":"המ\"ג","NumHouse":"7","AccountType":" - תחנת מד\"א","lon":35.1996482,"lat":31.7916038},{"DateDonation":"2020-08-25T00:00:00","FromHour":"08:00","ToHour":"18:00","Name":"","City":"רמת גן","Street":"בית חולים תה\"ש","NumHouse":"","AccountType":" - שרותי הדם מד\"א","lon":34.824785,"lat":32.068424},{"DateDonation":"2020-08-26T00:00:00","FromHour":"08:00","ToHour":"14:30","Name":"","City":"רמת גן","Street":"בית חולים תה\"ש","NumHouse":"","AccountType":" - שרותי הדם מד\"א","lon":34.824785,"lat":32.068424},{"DateDonation":"2020-08-26T00:00:00","FromHour":"09:00","ToHour":"16:00","Name":"  המ'ג 7 רוממה                                       ","City":"ירושלים","Street":"המ\"ג","NumHouse":"7","AccountType":" - תחנת מד\"א","lon":35.1996482,"lat":31.7916038},{"DateDonation":"2020-08-26T00:00:00","FromHour":"10:00","ToHour":"16:30","Name":"משביר י-ם","City":"ירושלים","Street":"המלך ג'ורג'","NumHouse":"20","AccountType":"","lon":35.2198589,"lat":31.7818019},{"DateDonation":"2020-08-27T00:00:00","FromHour":"10:00","ToHour":"16:30","Name":"משביר י-ם","City":"ירושלים","Street":"המלך ג'ורג'","NumHouse":"20","AccountType":"","lon":35.2198589,"lat":31.7818019},{"DateDonation":"2020-08-27T00:00:00","FromHour":"09:00","ToHour":"16:00","Name":"  המ'ג 7 רוממה                                       ","City":"ירושלים","Street":"המ\"ג","NumHouse":"7","AccountType":" - תחנת מד\"א","lon":35.1996482,"lat":31.7916038},{"DateDonation":"2020-08-27T00:00:00","FromHour":"08:00","ToHour":"14:30","Name":"","City":"רמת גן","Street":"בית חולים תה\"ש","NumHouse":"","AccountType":" - שרותי הדם מד\"א","lon":34.824785,"lat":32.068424},{"DateDonation":"2020-08-28T00:00:00","FromHour":"08:00","ToHour":"12:30","Name":"","City":"רחובות","Street":"0363","NumHouse":"69","AccountType":" - תחנת מד\"א","lon":34.81650279999999,"lat":31.8994247},{"DateDonation":"2020-08-28T00:00:00","FromHour":"08:00","ToHour":"12:30","Name":"","City":"רמת גן","Street":"בית חולים תה\"ש","NumHouse":"","AccountType":" - שרותי הדם מד\"א","lon":34.824785,"lat":32.068424},{"DateDonation":"2020-08-28T00:00:00","FromHour":"08:00","ToHour":"12:30","Name":"","City":"קרית מוצקין","Street":"החשמונאים","NumHouse":"75","AccountType":" - תחנת מד\"א","lon":35.079523,"lat":32.838202},{"DateDonation":"2020-08-28T00:00:00","FromHour":"08:00","ToHour":"12:30","Name":"","City":"חולון","Street":"הרוקמים","NumHouse":"1","AccountType":" - תחנת מד\"א","lon":34.787384,"lat":32.015833},{"DateDonation":"2020-08-28T00:00:00","FromHour":"08:00","ToHour":"12:30","Name":"","City":"חיפה","Street":"יצחק שדה","NumHouse":"10","AccountType":" - תחנת מד\"א","lon":34.989571,"lat":32.7940463},{"DateDonation":"2020-08-28T00:00:00","FromHour":"09:00","ToHour":"12:45","Name":"משביר י-ם","City":"ירושלים","Street":"המלך ג'ורג'","NumHouse":"20","AccountType":"","lon":35.2198589,"lat":31.7818019},{"DateDonation":"2020-08-28T00:00:00","FromHour":"08:00","ToHour":"12:30","Name":"  המ'ג 7 רוממה                                       ","City":"ירושלים","Street":"המ\"ג","NumHouse":"7","AccountType":" - תחנת מד\"א","lon":35.1996482,"lat":31.7916038},{"DateDonation":"2020-08-28T00:00:00","FromHour":"08:30","ToHour":"12:30","Name":"תחנת מגן דוד אדום","City":"טבריה","Street":"הבנים מול מלון לאונרדו","NumHouse":"1","AccountType":" - תחנת מד\"א","lon":35.5407268,"lat":32.785899},{"DateDonation":"2020-08-30T00:00:00","FromHour":"08:00","ToHour":"16:45","Name":"  ��מ'ג 7 רוממה                                       ","City":"ירושלים","Street":"המ\"ג","NumHouse":"7","AccountType":" - תחנת מד\"א","lon":35.2058748,"lat":31.7914796},{"DateDonation":"2020-08-30T00:00:00","FromHour":"10:00","ToHour":"16:30","Name":"משביר י-ם","City":"ירושלים","Street":"המלך ג'ורג'","NumHouse":"20","AccountType":"","lon":35.2198589,"lat":31.7818019},{"DateDonation":"2020-08-30T00:00:00","FromHour":"08:00","ToHour":"14:30","Name":"","City":"רמת גן","Street":"בית חולים תה\"ש","NumHouse":"","AccountType":" - שרותי הדם מד\"א","lon":34.824785,"lat":32.068424},{"DateDonation":"2020-08-31T00:00:00","FromHour":"08:00","ToHour":"14:30","Name":"","City":"רמת גן","Street":"בית חולים תה\"ש","NumHouse":"","AccountType":" - שרותי הדם מד\"א","lon":34.824785,"lat":32.068424},{"DateDonation":"2020-08-31T00:00:00","FromHour":"10:00","ToHour":"16:30","Name":"משביר י-ם","City":"ירושלים","Street":"המלך ג'ורג'","NumHouse":"20","AccountType":"","lon":35.2198589,"lat":31.7818019},{"DateDonation":"2020-09-09T00:00:00","FromHour":"16:00","ToHour":"20:00","Name":"חדר אוכל                  ","City":"עין הנצי''ב","Street":"","NumHouse":"","AccountType":"","lon":34.7856881,"lat":32.0764626},{"DateDonation":"2020-09-25T00:00:00","FromHour":"08:30","ToHour":"14:00","Name":"קניון איילון-שער ירקון","City":"רמת גן","Street":"","NumHouse":"","AccountType":"","lon":34.8267718,"lat":32.1003382},{"DateDonation":"2020-10-11T00:00:00","FromHour":"14:30","ToHour":"21:00","Name":"קרית עקרון                                       ","City":"קרית עקרון","Street":"הרצל","NumHouse":"44","AccountType":"","lon":34.8166232,"lat":31.8648919},{"DateDonation":"2020-10-16T00:00:00","FromHour":"08:30","ToHour":"14:00","Name":"רחבת הבנים                                     ","City":"הוד השרון","Street":"הבנים","NumHouse":"","AccountType":"","lon":34.8845912,"lat":32.1562671},{"DateDonation":"2020-10-16T00:00:00","FromHour":"08:30","ToHour":"14:00","Name":"  מגדיאל                                             ","City":"הוד השרון","Street":"מגדיאל","NumHouse":"67","AccountType":"","lon":34.90079600000001,"lat":32.161717},{"DateDonation":"2020-10-16T00:00:00","FromHour":"08:30","ToHour":"14:00","Name":"רחבת הבנים                                     ","City":"הוד השרון","Street":"הבנים","NumHouse":"","AccountType":"","lon":34.8845912,"lat":32.1562671},{"DateDonation":"2021-01-18T00:00:00","FromHour":"08:30","ToHour":"14:00","Name":"בי\"ס אלדד נתניה","City":"נתניה","Street":"ש\"ד גולדה מאיר","NumHouse":"109","AccountType":"","lon":34.8547964,"lat":32.2779609},{"DateDonation":"2021-05-14T00:00:00","FromHour":"08:30","ToHour":"14:00","Name":"  רחבת הבנים                                         ","City":"הוד השרון","Street":"הבנים","NumHouse":"","AccountType":"","lon":34.8845912,"lat":32.1562671},{"DateDonation":"2021-05-14T00:00:00","FromHour":"08:30","ToHour":"14:00","Name":"  מגדיאל                                             ","City":"הוד השרון","Street":"מגדיאל","NumHouse":"67","AccountType":"","lon":34.90079600000001,"lat":32.161717},{"DateDonation":"2021-05-14T00:00:00","FromHour":"08:30","ToHour":"14:00","Name":"  מגדיאל                                             ","City":"הוד השרון","Street":"מגדיאל","NumHouse":"67","AccountType":"","lon":34.90079600000001,"lat":32.161717},{"DateDonation":"2021-05-14T00:00:00","FromHour":"08:30","ToHour":"14:00","Name":"  רחבת הבנים                                         ","City":"הוד השרון","Street":"הבנים","NumHouse":"","AccountType":"","lon":34.8845912,"lat":32.1562671}],"ok":true,"message":"","code":200,"lastUpdateToGelocation":"2020-07-07T09:42:26.200Z"}